Name,Latitude,Longitude
Bruce Power,44.318372,-81.57483
Pickering,43.815166,-79.061188
Darlington,43.869439,-78.724706
Chalk River,46.02255149,-77.43291206
CNL Pinawa,50.177626,-96.060923
Ignace Nuclear Waste Repository,49.448361,-91.988974

